loopIteration, time (us), axisP[0], axisP[1], axisP[2], axisI[0], axisI[1], axisI[2], axisD[0], axisD[1], axisF[0], axisF[1], axisF[2], rcCommand[0], rcCommand[1], rcCommand[2], rcCommand[3], setpoint[0], setpoint[1], setpoint[2], setpoint[3], vbatLatest (V), amperageLatest (A), baroAlt, rssi, gyroADC[0], gyroADC[1], gyroADC[2], gyroUnfilt[0], gyroUnfilt[1], gyroUnfilt[2], accSmooth[0], accSmooth[1], accSmooth[2], debug[0], debug[1], debug[2], debug[3], debug[4], debug[5], debug[6], debug[7], motor[0], motor[1], motor[2], motor[3], eRPM[0], eRPM[1], eRPM[2], eRPM[3], energyCumulative (mAh), flightModeFlags (flags), stateFlags (flags), failsafePhase (flags), rxSignalReceived, rxFlightChannelsValid
  0, 35632945,   0,   0,   0,   0,   0,   0,   0,   0,   0,   0,   0,   1,   1,  -1, 1000,   0,   0,   0,   0, 16.49, 1.25,   0, 535,   0,   0,   0,   0,   0,  -1, -29,  89, 2038,  -1,   0,  -1,   0,   0,   0,   0,   0, 163, 162, 165, 165,  12,  12,  12,  17, 0, 0, 0, IDLE, 0, 0
  1, 35633195,   0,   0,   0,   0,   0,   0,   0,   0,   0,   0,   0,   1,   1,  -1, 1000,   0,   0,   0,   0, 16.49, 1.25,   0, 535,   0,   0,   0,   0,   0,   0, -29,  89, 2038,   0,   0,   0,   0,   0,   0,   0,   0, 163, 162, 166, 165,  12,  12,  12,  17, 25, ANGLE_MODE, 0, IDLE, 1, 1
  2, 35633447,   0,   0,   0,   0,   0,   0,   1,   0,   0,   0,   0,   1,   1,  -1, 1000,   0,   0,   0,   0, 16.49, 1.25,   0, 535,   0,   0,   0,   0,   0,   0, -29,  89, 2038,   0,   0,   0,   0,   0,   0,   0,   0, 163, 162, 166, 165,  12,  12,  12,  17, 25, ANGLE_MODE, 0, IDLE, 1, 1
  3, 35633699,   0,   0,   0,   0,   0,   0,   1,   0,   0,   0,   0,   1,   1,  -1, 1000,   0,   0,   0,   0, 16.49, 1.25,   0, 535,   0,   0,   0,   0,   0,   0, -32,  90, 2037,   0,   0,   0,   0,   0,   0,   0,   0, 163, 161, 167, 165,  12,  12,  12,  17, 25, ANGLE_MODE, 0, IDLE, 1, 1
  4, 35633950,   0,   0,   0,   0,   0,   0,   1,   0,   0,   0,   0,   1,   1,  -1, 1000,   0,   0,   0,   0, 16.49, 1.25,   0, 535,   0,   0,   0,   0,   0,   0, -32,  90, 2037,   0,   0,   0,   0,   0,   0,   0,   0, 163, 161, 167, 165,  12,  12,  12,  17, 25, ANGLE_MODE, 0, IDLE, 1, 1
  5, 35634202,   0,   0,   0,   0,   0,   0,   1,   0,   0,   0,   0,   1,   1,  -1, 1000,   0,   0,   0,   0, 16.49, 1.25,   0, 535,   0,   0,   0,   0,   0,   0, -32,  90, 2037,   0,   0,   0,   0,   0,   0,   0,   0, 163, 161, 167, 165,  12,  12,  12,  17, 25, ANGLE_MODE, 0, IDLE, 1, 1
  6, 35634456,   0,   0,   0,   0,   0,   0,   1,   0,   0,   0,   0,   1,   1,  -1, 1000,   0,   0,   0,   0, 16.49, 1.25,   0, 535,   0,   0,   0,   0,   0,   1, -32,  90, 2037,   0,   0,   1,   0,   0,   0,   0,   0, 163, 161, 167, 165,  12,  12,  12,  17, 25, ANGLE_MODE, 0, IDLE, 1, 1
  7, 35634705,   0,   0,   0,   0,   0,   0,   1,   0,   0,   0,   0,   1,   1,  -1, 1000,   0,   0,   0,   0, 16.49, 1.25,   0, 535,   0,   0,   0,   0,   0,   1, -31,  92, 2038,   0,   0,   1,   0,   0,   0,   0,   0, 163, 162, 166, 165,  12,  12,  12,  17, 25, ANGLE_MODE, 0, IDLE, 1, 1
  8, 35634959,   0,   0,   0,   0,   0,   0,   1,   0,   0,   0,   0,   1,   1,  -1, 1000,   0,   0,   0,   0, 16.49, 1.25,   0, 535,   0,   0,   0,   0,   0,   1, -31,  92, 2038,   0,   0,   1,   0,   0,   0,   0,   0, 163, 162, 166, 165,  12,  12,  12,  17, 25, ANGLE_MODE, 0, IDLE, 1, 1
  9, 35635209,   0,   0,   0,   0,   0,   0,   0,   0,   0,   0,   0,   1,   1,  -1, 1000,   0,   0,   0,   0, 16.49, 1.25,   0, 535,   0,   0,   0,   0,   0,   1, -31,  92, 2038,   0,   0,   1,   0,   0,   0,   0,   0, 164, 162, 166, 165,  12,  12,  12,  17, 25, ANGLE_MODE, 0, IDLE, 1, 1
 10, 35635460,   0,   0,   0,   0,   0,   0,   0,   0,   0,   0,   0,   1,   1,  -1, 1000,   0,   0,   0,   0, 16.49, 1.25,   0, 535,   0,   0,   0,   0,   0,   0, -31,  92, 2038,   0,   0,   0,   0,   0,   0,   0,   0, 164, 162, 166, 164,  12,  12,  12,  17, 25, ANGLE_MODE, 0, IDLE, 1, 1
 11, 35635712,   0,   1,   0,   0,   0,   0,   0,   0,   0,   0,   0,   1,   1,  -1, 1000,   0,   0,   0,   0, 16.49, 1.25,   0, 535,   0,   0,   0,   0,   0,   0, -33,  88, 2037,   0,   0,   0,   0,   0,   0,   0,   0, 165, 161, 166, 164,  12,  12,  12,  17, 25, ANGLE_MODE, 0, IDLE, 1, 1
 12, 35635963,   0,   1,   0,   0,   0,   0,   0,   1,   0,   0,   0,   1,   1,  -1, 1000,   0,   0,   0,   0, 16.49, 1.25,   0, 535,   0,   0,   0,   0,   0,   0, -33,  88, 2037,   0,   0,   0,   0,   0,   0,   0,   0, 165, 161, 166, 163,  12,  12,  12,  17, 25, ANGLE_MODE, 0, IDLE, 1, 1
 13, 35636215,   0,   1,   0,   0,   0,   0,   0,   1,   0,   0,   0,   1,   1,  -1, 1000,   0,   0,   0,   0, 16.49, 1.25,   0, 535,   0,   0,   0,   0,   0,   0, -33,  88, 2037,   0,   0,   0,   0,   0,   0,   0,   0, 166, 161, 166, 163,  12,  12,  12,  17, 25, ANGLE_MODE, 0, IDLE, 1, 1
 14, 35636467,   0,   1,   0,   0,   0,   0,   0,   1,   0,   0,   0,   1,   1,  -1, 1000,   0,   0,   0,   0, 16.49, 1.25,   0, 535,   0,   0,   0,   0,   0,   0, -33,  88, 2037,   0,   0,   0,   0,   0,   0,   0,   0, 166, 161, 166, 163,  12,  12,  12,  17, 25, ANGLE_MODE, 0, IDLE, 1, 1
 15, 35636719,   0,   0,   0,   0,   0,   0,   0,   1,   0,   0,   0,   1,   1,  -1, 1000,   0,   0,   0,   0, 16.46, 1.25,   0, 535,   0,   0,   0,   0,   0,   0, -32,  92, 2037,   0,   0,   0,   0,   0,   0,   0,   0, 166, 161, 165, 163,  12,  12,  12,  17, 25, ANGLE_MODE, 0, IDLE, 1, 1
 16, 35636972,   0,   0,   0,   0,   0,   0,   0,   0,   0,   0,   0,   1,   1,  -1, 1000,   0,   0,   0,   0, 16.46, 1.25,   0, 535,   0,   0,   0,   0,   0,   0, -32,  92, 2037,   0,   0,   0,   0,   0,   0,   0,   0, 165, 162, 165, 164,  12,  12,  12,  17, 25, ANGLE_MODE, 0, IDLE, 1, 1
 17, 35637222,   0,   0,   0,   0,   0,   0,   0,   0,   0,   0,   0,   1,   1,  -1, 1000,   0,   0,   0,   0, 16.46, 1.25,   0, 535,   0,   0,   0,   0,   0,  -1, -32,  92, 2037,   0,   0,  -1,   0,   0,   0,   0,   0, 165, 162, 165, 164,  12,  12,  12,  17, 25, ANGLE_MODE, 0, IDLE, 1, 1
 18, 35637474,   0,   0,   0,   0,   0,   0,   0,   0,   0,   0,   0,   1,   1,  -1, 1000,   0,   0,   0,   0, 16.46, 1.25,   0, 535,   0,   0,   0,   0,   0,  -2, -32,  92, 2037,   0,   0,  -1,   0,   0,   0,   0,   0, 165, 161, 165, 164,  12,  12,  12,  17, 25, ANGLE_MODE, 0, IDLE, 1, 1
 19, 35637725,   0,   1,   0,   0,   0,   0,   0,   0,   0,   0,   0,   1,   1,  -1, 1000,   0,   0,   0,   0, 16.46, 1.25,   0, 535,   0,   0,   0,   0,   0,  -2, -33,  91, 2037,   0,   0,  -2,   0,   0,   0,   0,   0, 165, 161, 166, 164,  12,  12,  12,  17, 25, ANGLE_MODE, 0, IDLE, 1, 1
 20, 35637977,   0,   1,   0,   0,   0,   0,   0,   0,   0,   0,   0,   1,   1,  -1, 1000,   0,   0,   0,   0, 16.46, 1.25,   0, 535,   0,   0,   0,   0,   0,  -1, -33,  91, 2037,   0,   0,  -1,   0,   0,   0,   0,   0, 165, 161, 166, 164,  12,  12,  12,  17, 25, ANGLE_MODE, 0, IDLE, 1, 1
 21, 35638229,   0,   0,   0,   0,   0,   0,   0,   0,   0,   0,   0,   1,   1,  -1, 1000,   0,   0,   0,   0, 16.46, 1.25,   0, 535,   0,   0,   0,   0,   0,   0, -33,  91, 2037,   0,   0,  -1,   0,   0,   0,   0,   0, 165, 162, 166, 164,  12,  12,  12,  17, 25, ANGLE_MODE, 0, IDLE, 1, 1
 22, 35638480,   0,   0,   0,   0,   0,   0,   0,   0,   0,   0,   0,   1,   1,  -1, 1000,   0,   0,   0,   0, 16.46, 1.25,   0, 535,   0,   0,   0,   0,   0,   0, -33,  91, 2037,   0,   0,   0,   0,   0,   0,   0,   0, 165, 162, 165, 164,  12,  12,  12,  17, 25, ANGLE_MODE, 0, IDLE, 1, 1
 23, 35638732,   0,   0,   0,   0,   0,   0,   0,   0,   0,   0,   0,   1,   1,  -1, 1000,   0,   0,   0,   0, 16.46, 1.25,   0, 535,   0,   0,   0,   0,   0,   0, -32,  91, 2038,   0,   0,   0,   0,   0,   0,   0,   0, 165, 163, 165, 163,  12,  12,  12,  17, 25, ANGLE_MODE, 0, IDLE, 1, 1
 24, 35638984,   0,   0,   0,   0,   0,   0,   0,   0,   0,   0,   0,   1,   1,  -1, 1000,   0,   0,   0,   0, 16.46, 1.25,   0, 535,   0,   0,   0,   0,   0,   0, -32,  91, 2038,   0,   0,   0,   0,   0,   0,   0,   0, 164, 164, 164, 164,  12,  12,  12,  17, 25, ANGLE_MODE, 0, IDLE, 1, 1
 25, 35639235,   0,   0,   0,   0,   0,   0,   0,   0,   0,   0,   0,   1,   1,  -1, 1000,   0,   0,   0,   0, 16.46, 1.25,   0, 535,   0,   0,   0,   0,   0,   0, -32,  91, 2038,   0,   0,   0,   0,   0,   0,   0,   0, 164, 165, 163, 164,  12,  12,  12,  17, 25, ANGLE_MODE, 0, IDLE, 1, 1
 26, 35639487,   0,   0,   0,   0,   0,   0,   0,  -1,   0,   0,   0,   1,   1,  -1, 1000,   0,   0,   0,   0, 16.46, 1.25,   0, 535,   0,   0,   0,   0,   0,   0, -32,  91, 2038,   0,   0,   0,   0,   0,   0,   0,   0, 163, 165, 163, 165,  12,  12,  12,  17, 25, ANGLE_MODE, 0, IDLE, 1, 1
 27, 35639739,   0,   0,   0,   0,   0,   0,   0,  -1,   0,   0,   0,   1,   1,  -1, 1000,   0,   0,   0,   0, 16.46, 1.25,   0, 535,   0,   0,   0,   0,   0,   1, -33,  92, 2041,   0,   0,   0,   0,   0,   0,   0,   0, 163, 165, 163, 165,  12,  12,  12,  17, 25, ANGLE_MODE, 0, IDLE, 1, 1
 28, 35639990,   0,   0,   0,   0,   0,   0,   0,  -1,   0,   0,   0,   1,   1,  -1, 1000,   0,   0,   0,   0, 16.46, 1.25,   0, 535,   0,   0,   0,   0,   0,   1, -33,  92, 2041,   0,   0,   1,   0,   0,   0,   0,   0, 163, 164, 164, 165,  12,  12,  12,  17, 25, ANGLE_MODE, 0, IDLE, 1, 1
 29, 35640242,   0,   0,   0,   0,   0,   0,   0,   0,   0,   0,   0,   1,   1,  -1, 1000,   0,   0,   0,   0, 16.46, 1.25,   0, 535,   0,   0,   0,   0,   0,   1, -33,  92, 2041,   0,   0,   1,   0,   0,   0,   0,   0, 164, 164, 164, 164,  12,  12,  12,  17, 25, ANGLE_MODE, 0, IDLE, 1, 1
 30, 35640494,   0,   0,   0,   0,   0,   0,   0,   0,   0,   0,   0,   1,   1,  -1, 1000,   0,   0,   0,   0, 16.46, 1.25,   0, 535,   0,   0,   0,   0,   0,   1, -33,  92, 2041,   0,   0,   1,   0,   0,   0,   0,   0, 165, 163, 164, 164,  12,  12,  12,  17, 25, ANGLE_MODE, 0, IDLE, 1, 1
 31, 35640745,   0,   0,   0,   0,   0,   0,   0,   0,   0,   0,   0,   1,   1,  -1, 1000,   0,   0,   0,   0, 16.46, 1.25,   0, 535,   0,   0,   0,   0,   0,   0, -33,  91, 2040,   0,   0,   1,   0,   0,   0,   0,   0, 165, 163, 164, 163,  12,  12,  12,  17, 25, ANGLE_MODE, 0, IDLE, 1, 1
 32, 35640999,   0,   0,   0,   0,   0,   0,   0,   0,   0,   0,   0,   1,   1,  -1, 1000,   0,   0,   0,   0, 16.46, 1.85,   0, 535,   0,   0,   0,   0,   0,   0, -33,  91, 2040,   0,   0,   0,   0,   0,   0,   0,   0, 165, 163, 164, 163,  12,  12,  12,  17, 25, ANGLE_MODE, 0, IDLE, 1, 1
 33, 35641249,   0,   0,   0,   0,   0,   0,   0,   0,   0,   0,   0,   1,   1,  -1, 1000,   0,   0,   0,   0, 16.46, 1.85,   0, 535,   0,   0,   0,   0,   0,   0, -33,  91, 2040,   0,   0,   0,   0,   0,   0,   0,   0, 165, 163, 164, 164,  12,  12,  12,  17, 25, ANGLE_MODE, 0, IDLE, 1, 1
 34, 35641500,   0,   0,   0,   0,   0,   0,   0,   0,   0,   0,   0,   1,   1,  -1, 1000,   0,   0,   0,   0, 16.46, 1.85,   0, 535,   0,   0,   0,   0,   0,   0, -33,  91, 2040,   0,   0,   0,   0,   0,   0,   0,   0, 165, 163, 164, 164,  12,  12,  12,  17, 25, ANGLE_MODE, 0, IDLE, 1, 1
 35, 35641752,   0,   0,   0,   0,   0,   0,   0,   0,   0,   0,   0,   1,   1,  -1, 1000,   0,   0,   0,   0, 16.46, 1.85,   0, 535,   0,   0,   0,   0,   0,   0, -34,  91, 2040,   0,   0,   0,   0,   0,   0,   0,   0, 164, 163, 163, 165,  12,  12,  12,  17, 25, ANGLE_MODE, 0, IDLE, 1, 1
 36, 35642004,   0,   0,   0,   0,   0,   0,   0,   0,   0,   0,   0,   1,   1,  -1, 1000,   0,   0,   0,   0, 16.46, 1.85,   0, 535,   0,   0,   0,   0,  -1,   0, -34,  91, 2040,   0,   0,   0,   0,   0,   0,   0,   0, 164, 163, 164, 165,  12,  12,  12,  17, 25, ANGLE_MODE, 0, IDLE, 1, 1
 37, 35642255,   0,   0,   0,   0,   0,   0,   0,   0,   0,   0,   0,   1,   1,  -1, 1000,   0,   0,   0,   0, 16.46, 1.85,   0, 535,   0,   0,   0,   0,  -1,   0, -34,  91, 2040,   0,  -1,   0,   0,   0,   0,   0,   0, 164, 162, 164, 165,  12,  12,  12,  17, 25, ANGLE_MODE, 0, IDLE, 1, 1
 38, 35642507,   0,   1,   0,   0,   0,   0,   0,   0,   0,   0,   0,   1,   1,  -1, 1000,   0,   0,   0,   0, 16.46, 1.85,   0, 535,   0,   0,   0,   0,   0,   0, -34,  91, 2040,   0,  -1,   0,   0,   0,   0,   0,   0, 165, 161, 165, 165,  12,  12,  12,  17, 25, ANGLE_MODE, 0, IDLE, 1, 1
 39, 35642759,   0,   1,  -1,   0,   0,   0,   0,   0,   0,   0,   0,   1,   1,  -1, 1000,   0,   0,   0,   0, 16.46, 1.85,   0, 535,   0,   0,   0,   0,   0,   0, -36,  90, 2038,   0,   0,   0,   0,   0,   0,   0,   0, 165, 161, 165, 164,  12,  12,  12,  17, 25, ANGLE_MODE, 0, IDLE, 1, 1
 40, 35643010,   0,   1,  -1,   0,   0,   0,   0,   0,   0,   0,   0,   1,   1,  -1, 1000,   0,   0,   0,   0, 16.46, 1.85,   0, 535,   0,   0,   0,   0,   0,   0, -36,  90, 2038,   0,   0,   0,   0,   0,   0,   0,   0, 166, 161, 165, 164,  12,  12,  12,  17, 25, ANGLE_MODE, 0, IDLE, 1, 1
 41, 35643262,   0,   0,  -1,   0,   0,   0,   0,   0,   0,   0,   0,   1,   1,  -1, 1000,   0,   0,   0,   0, 16.46, 1.85,   0, 535,   0,   0,   0,   0,   0,   1, -36,  90, 2038,   0,   0,   0,   0,   0,   0,   0,   0, 166, 161, 165, 164,  12,  12,  12,  17, 25, ANGLE_MODE, 0, IDLE, 1, 1
 42, 35643514,   0,   0,  -1,   0,   0,   0,   0,   0,   0,   0,   0,   1,   1,  -1, 1000,   0,   0,   0,   0, 16.46, 1.85,   0, 535,   0,   0,   0,   0,   0,   1, -36,  90, 2038,   0,   0,   1,   0,   0,   0,   0,   0, 166, 161, 165, 164,  12,  12,  12,  17, 25, ANGLE_MODE, 0, IDLE, 1, 1
 43, 35643765,   0,   0,  -1,   0,   0,   0,   0,   0,   0,   0,   0,   1,   1,  -1, 1000,   0,   0,   0,   0, 16.46, 1.85,   0, 535,   0,   0,   0,   0,   0,   1, -30,  91, 2038,   0,   0,   1,   0,   0,   0,   0,   0, 166, 161, 165, 164,  12,  12,  12,  17, 25, ANGLE_MODE, 0, IDLE, 1, 1
 44, 35644017,   0,   0,  -1,   0,   0,   0,   0,   0,   0,   0,   0,   1,   1,  -1, 1000,   0,   0,   0,   0, 16.46, 1.85,   0, 535,   0,   0,   0,   0,   0,   1, -30,  91, 2038,   0,   0,   1,   0,   0,   0,   0,   0, 166, 162, 165, 164,  12,  12,  12,  17, 25, ANGLE_MODE, 0, IDLE, 1, 1
 45, 35644269,   0,   0,  -1,   0,   0,   0,   0,   0,   0,   0,   0,   1,   1,  -1, 1000,   0,   0,   0,   0, 16.46, 1.85,   0, 535,   0,   0,   0,   0,   0,   0, -30,  91, 2038,   0,   0,   1,   0,   0,   0,   0,   0, 166, 162, 164, 164,  12,  12,  12,  17, 25, ANGLE_MODE, 0, IDLE, 1, 1
 46, 35644520,   0,   0,  -1,   0,   0,   0,   0,   0,   0,   0,   0,   1,   1,  -1, 1000,   0,   0,   0,   0, 16.46, 1.85,   0, 535,   0,   0,   0,   0,   0,   0, -30,  91, 2038,   0,   0,   0,   0,   0,   0,   0,   0, 166, 161, 164, 164,  12,  12,  12,  17, 25, ANGLE_MODE, 0, IDLE, 1, 1
 47, 35644772,   0,   1,  -1,   0,   0,   0,   0,   0,   0,   0,   0,   1,   1,  -1, 1000,   0,   0,   0,   0, 16.46, 1.85,   0, 535,   0,   0,   0,   0,   0,   0, -35,  89, 2035,   0,   0,   0,   0,   0,   0,   0,   0, 166, 161, 165, 164,  12,  12,  12,  17, 25, ANGLE_MODE, 0, IDLE, 1, 1
 48, 35645026,   0,   1,  -1,   0,   0,   0,   0,   0,   0,   0,   0,   1,   1,  -1, 1000,   0,   0,   0,   0, 16.46, 1.85,   0, 535,   0,   0,   0,   0,   0,   0, -35,  89, 2035,   0,   0,   0,   0,   0,   0,   0,   0, 166, 161, 165, 164,  12,  12,  12,  17, 25, ANGLE_MODE, 0, IDLE, 1, 1
 49, 35645275,   0,   0,  -1,   0,   0,   0,   0,   0,   0,   0,   0,   1,   1,  -1, 1000,   0,   0,   0,   0, 16.46, 1.85,   0, 535,   0,   0,   0,   0,   0,   0, -35,  89, 2035,   0,   0,   0,   0,   0,   0,   0,   0, 166, 161, 165, 164,  12,  12,  12,  17, 25, ANGLE_MODE, 0, IDLE, 1, 1
 50, 35645527,   0,   0,  -1,   0,   0,   0,   0,   0,   0,   0,   0,   1,   1,  -1, 1000,   0,   0,   0,   0, 16.46, 1.85,   0, 535,   0,   0,   0,   0,   0,   0, -35,  89, 2035,   0,   0,   0,   0,   0,   0,   0,   0, 165, 162, 164, 164,  12,  12,  12,  17, 25, ANGLE_MODE, 0, IDLE, 1, 1
 51, 35645778,   0,   0,  -1,   0,   0,   0,   0,   0,   0,   0,   0,   1,   1,  -1, 1000,   0,   0,   0,   0, 16.46, 1.85,   0, 535,   0,   0,   0,   0,   1,   0, -35,  93, 2035,   0,   0,   0,   0,   0,   0,   0,   0, 165, 162, 164, 165,  12,  12,  12,  17, 25, ANGLE_MODE, 0, IDLE, 1, 1
 52, 35646030,   0,   0,  -1,   0,   0,   0,   0,   0,   0,   0,   0,   1,   1,  -1, 1000,   0,   0,   0,   0, 16.46, 1.85,   0, 535,   0,   0,   0,  -1,   1,  -1, -35,  93, 2035,  -1,   1,   0,   0,   0,   0,   0,   0, 164, 162, 164, 166,  12,  12,  12,  17, 25, ANGLE_MODE, 0, IDLE, 1, 1
 53, 35646282,   0,   0,  -1,   0,   0,   0,   0,  -1,   0,   0,   0,   1,   1,  -1, 1000,   0,   0,   0,   0, 16.46, 1.85,   0, 535,   0,   0,   0,   0,   0,  -1, -35,  93, 2035,   0,   0,  -1,   0,   0,   0,   0,   0, 163, 163, 163, 167,  12,  12,  12,  17, 25, ANGLE_MODE, 0, IDLE, 1, 1
 54, 35646533,   0,   0,  -1,   0,   0,   0,   0,  -1,   0,   0,   0,   1,   1,  -1, 1000,   0,   0,   0,   0, 16.46, 1.85,   0, 535,   0,   0,   0,   0,   0,  -1, -35,  93, 2035,   0,   0,  -1,   0,   0,   0,   0,   0, 162, 163, 163, 168,  12,  12,  12,  17, 25, ANGLE_MODE, 0, IDLE, 1, 1
 55, 35646785,   1,   0,  -1,   0,   0,   0,   1,  -1,   0,   0,   0,   1,   1,  -1, 1000,   0,   0,   0,   0, 16.45, 1.85,   0, 535,   0,   0,   0,   0,   0,   0, -31,  85, 2036,   0,   0,  -1,   0,   0,   0,   0,   0, 161, 163, 163, 168,  12,  12,  12,  17, 25, ANGLE_MODE, 0, IDLE, 1, 1
 56, 35647039,   1,   0,   0,   0,   0,   0,   1,  -1,   0,   0,   0,   1,   1,  -1, 1000,   0,   0,   0,   0, 16.45, 1.85,   0, 535,   0,   0,   0,   0,   0,   0, -31,  85, 2036,   0,   0,   0,   0,   0,   0,   0,   0, 161, 163, 164, 168,  12,  12,  12,  17, 25, ANGLE_MODE, 0, IDLE, 1, 1
 57, 35647288,   0,   0,   0,   0,   0,   0,   1,  -1,   0,   0,   0,   1,   1,  -1, 1000,   0,   0,   0,   0, 16.45, 1.85,   0, 535,   0,   0,   0,   0,   0,   1, -31,  85, 2036,   0,   0,   1,   0,   0,   0,   0,   0, 162, 162, 164, 168,  12,  12,  12,  17, 25, ANGLE_MODE, 0, IDLE, 1, 1
 58, 35647540,   0,   0,  -1,   0,   0,   0,   1,  -1,   0,   0,   0,   1,   1,  -1, 1000,   0,   0,   0,   0, 16.45, 1.85,   0, 535,   0,   0,   0,   0,   0,   1, -31,  85, 2036,   0,   0,   1,   0,   0,   0,   0,   0, 162, 162, 164, 168,  12,  12,  12,  17, 25, ANGLE_MODE, 0, IDLE, 1, 1
 59, 35647792,   0,   0,  -1,   0,   0,   0,   1,  -1,   0,   0,   0,   1,   1,  -1, 1000,   0,   0,   0,   0, 16.45, 1.85,   0, 535,   0,   0,   0,   0,   0,   1, -42,  91, 2035,   0,   0,   1,   0,   0,   0,   0,   0, 162, 163, 163, 168,  12,  12,  12,  17, 25, ANGLE_MODE, 0, IDLE, 1, 1
 60, 35648043,   0,   0,  -1,   0,   0,   0,   0,  -1,   0,   0,   0,   1,   1,  -1, 1000,   0,   0,   0,   0, 16.45, 1.85,   0, 535,   0,   0,   0,   0,   0,   1, -42,  91, 2035,   0,   0,   1,   0,   0,   0,   0,   0, 162, 163, 163, 168,  12,  12,  12,  17, 25, ANGLE_MODE, 0, IDLE, 1, 1
 61, 35648295,   0,   0,  -1,   0,   0,   0,   0,  -1,   0,   0,   0,   1,   1,  -1, 1000,   0,   0,   0,   0, 16.45, 1.85,   0, 535,   0,   0,   0,   0,   0,   1, -42,  91, 2035,   0,   0,   1,   0,   0,   0,   0,   0, 163, 163, 163, 168,  12,  12,  12,  17, 25, ANGLE_MODE, 0, IDLE, 1, 1
 62, 35648547,   0,   0,  -1,   0,   0,   0,   0,  -1,   0,   0,   0,   1,   1,  -1, 1000,   0,   0,   0,   0, 16.45, 1.85,   0, 535,   0,   0,   0,   0,  -1,   0, -42,  91, 2035,   0,   0,   1,   0,   0,   0,   0,   0, 163, 163, 163, 167,  12,  12,  12,  17, 25, ANGLE_MODE, 0, IDLE, 1, 1
 63, 35648798,   0,   0,  -1,   0,   0,   0,   0,  -1,   0,   0,   0,   1,   1,  -1, 1000,   0,   0,   0,   0, 16.45, 1.85,   0, 535,   0,   0,   0,   0,   0,   0, -42,  91, 2035,   0,  -1,   0,   0,   0,   0,   0,   0, 164, 163, 163, 166,  12,  12,  12,  17, 25, ANGLE_MODE, 0, IDLE, 1, 1
 64, 35649050,   0,   0,  -1,   0,   0,   0,   0,   0,   0,   0,   0,   1,   1,  -1, 1000,   0,   0,   0,   0, 16.45, 1.85,   0, 535,   0,   0,   0,   1,   0,   1, -38,  83, 2037,   0,   0,   1,   0,   0,   0,   0,   0, 165, 162, 163, 165,  12,  12,  12,  17, 25, ANGLE_MODE, 0, IDLE, 1, 1
 65, 35649302,   0,   1,  -1,   0,   0,   0,   0,   0,   0,   0,   0,   1,   1,  -1, 1000,   0,   0,   0,   0, 16.45, 1.85,   0, 535,   0,   0,   0,   1,   0,   1, -38,  83, 2037,   1,   0,   1,   0,   0,   0,   0,   0, 166, 162, 164, 164,  12,  12,  12,  17, 25, ANGLE_MODE, 0, IDLE, 1, 1
 66, 35649554,   0,   1,  -1,   0,   0,   0,  -1,   0,   0,   0,   0,   1,   1,  -1, 1000,   0,   0,   0,   0, 16.45, 1.85,   0, 535,   0,   0,   0,   0,   0,   1, -38,  83, 2037,   1,   0,   1,   0,   0,   0,   0,   0, 168, 162, 163, 162,  12,  12,  12,  17, 25, ANGLE_MODE, 0, IDLE, 1, 1
 67, 35649805,   0,   1,  -1,   0,   0,   0,  -1,   1,   0,   0,   0,   1,   1,  -1, 1000,   0,   0,   0,   0, 16.45, 1.85,   0, 535,   0,   0,   0,   0,   0,   1, -38,  83, 2037,   0,   0,   1,   0,   0,   0,   0,   0, 169, 163, 163, 161,  12,  12,  12,  17, 25, ANGLE_MODE, 0, IDLE, 1, 1
 68, 35650057,   0,   1,  -1,   0,   0,   0,  -1,   1,   0,   0,   0,   1,   1,  -1, 1000,   0,   0,   0,   0, 16.45, 1.85,   0, 535,   0,   0,   0,   0,   0,   0, -40,  85, 2034,   0,   0,   0,   0,   0,   0,   0,   0, 170, 163, 163, 161,  12,  12,  12,  17, 25, ANGLE_MODE, 0, IDLE, 1, 1
 69, 35650309,   0,   0,  -1,   0,   0,   0,  -2,   1,   0,   0,   0,   1,   1,  -1, 1000,   0,   0,   0,   0, 16.45, 1.85,   0, 535,   0,   0,   0,   0,   0,  -1, -40,  85, 2034,   0,   0,  -1,   0,   0,   0,   0,   0, 170, 163, 162, 161,  12,  12,  12,  17, 25, ANGLE_MODE, 0, IDLE, 1, 1
 70, 35650560,   0,   0,  -1,   0,   0,   0,  -2,   1,   0,   0,   0,   1,   1,  -1, 1000,   0,   0,   0,   0, 16.45, 1.85,   0, 535,   0,   0,   0,   0,   0,  -1, -40,  85, 2034,   0,   0,  -1,   0,   0,   0,   0,   0, 169, 164, 162, 161,  12,  12,  12,  17, 25, ANGLE_MODE, 0, IDLE, 1, 1
 71, 35650812,   0,   0,  -1,   0,   0,   0,  -1,   1,   0,   0,   0,   1,   1,  -1, 1000,   0,   0,   0,   0, 16.45, 1.85,   0, 535,   0,   0,   0,  -1,   0,  -1, -40,  85, 2034,   0,   0,  -1,   0,   0,   0,   0,   0, 169, 163, 162, 161,  12,  12,  12,  17, 25, ANGLE_MODE, 0, IDLE, 1, 1
 72, 35651074,   0,   0,  -1,   0,   0,   0,  -1,   1,   0,   0,   0,   1,   1,  -1, 1000,   0,   0,   0,   0, 16.45, 1.85,   0, 535,   0,   0,   0,   0,  -1,  -1, -43,  84, 2035,  -1,   0,  -1,   0,   0,   0,   0,   0, 168, 163, 163, 162,  12,  12,  12,  17, 25, ANGLE_MODE, 0, IDLE, 1, 1
 73, 35651315,   0,   1,  -1,   0,   0,   0,  -1,   1,   0,   0,   0,   1,   1,  -1, 1000,   0,   0,   0,   0, 16.45, 1.85,   0, 535,   0,   0,   0,   0,   0,  -1, -43,  84, 2035,   0,  -1,  -1,   0,   0,   0,   0,   0, 168, 162, 164, 162,  12,  12,  12,  17, 25, ANGLE_MODE, 0, IDLE, 1, 1
 74, 35651567,   0,   1,  -1,   0,   0,   0,  -1,   1,   0,   0,   0,   1,   1,  -1, 1000,   0,   0,   0,   0, 16.45, 1.85,   0, 535,   0,   0,   0,   0,   0,  -1, -43,  84, 2035,   0,   0,  -1,   0,   0,   0,   0,   0, 168, 161, 165, 162,  12,  12,  12,  17, 25, ANGLE_MODE, 0, IDLE, 1, 1
 75, 35651818,   0,   1,  -1,   0,   0,   0,   0,   1,   0,   0,   0,   1,   1,  -1, 1000,   0,   0,   0,   0, 16.45, 1.85,   0, 535,   0,   0,   0,   0,   0,  -1, -43,  84, 2035,   0,   0,  -2,   0,   0,   0,   0,   0, 168, 160, 166, 162,  12,  12,  12,  17, 25, ANGLE_MODE, 0, IDLE, 1, 1
 76, 35652070,   0,   1,   0,   0,   0,   0,   0,   1,   0,   0,   0,   1,   1,  -1, 1000,   0,   0,   0,   0, 16.45, 1.85,   0, 535,   0,   0,   0,   0,   0,  -1, -40,  85, 2032,   0,   0,  -1,   0,   0,   0,   0,   0, 168, 160, 166, 162,  12,  12,  12,  17, 25, ANGLE_MODE, 0, IDLE, 1, 1
 77, 35652322,   0,   1,   0,   0,   0,   0,   0,   1,   0,   0,   0,   1,   1,  -1, 1000,   0,   0,   0,   0, 16.45, 1.85,   0, 535,   0,   0,   0,  -1,   0,   0, -40,  85, 2032,   0,   0,  -1,   0,   0,   0,   0,   0, 167, 160, 167, 162,  12,  12,  12,  17, 25, ANGLE_MODE, 0, IDLE, 1, 1
 78, 35652573,   0,   1,   0,   0,   0,   0,   0,   1,   0,   0,   0,   1,   1,  -1, 1000,   0,   0,   0,   0, 16.45, 1.85,   0, 535,   0,   0,   0,  -1,   0,   0, -40,  85, 2032,  -1,   0,   0,   0,   0,   0,   0,   0, 166, 160, 167, 163,  12,  12,  12,  17, 25, ANGLE_MODE, 0, IDLE, 1, 1
 79, 35652825,   1,   0,   0,   0,   0,   0,   1,   1,   0,   0,   0,   1,   1,  -1, 1000,   0,   0,   0,   0, 16.45, 1.85,   0, 535,   0,   0,   0,   0,   0,  -1, -40,  85, 2032,  -1,   0,   0,   0,   0,   0,   0,   0, 165, 160, 167, 164,  12,  12,  12,  17, 25, ANGLE_MODE, 0, IDLE, 1, 1
 80, 35653077,   1,   0,   0,   0,   0,   0,   1,   1,   0,   0,   0,   1,   1,  -1, 1000,   0,   0,   0,   0, 16.45, 1.85,   0, 535,   0,   0,   0,   0,   0,  -1, -40,  86, 2031,   0,   0,  -1,   0,   0,   0,   0,   0, 164, 160, 167, 165,  12,  12,  12,  17, 25, ANGLE_MODE, 0, IDLE, 1, 1
 81, 35653328,   1,   0,   0,   0,   0,   0,   1,   0,   0,   0,   0,   1,   1,  -1, 1000,   0,   0,   0,   0, 16.45, 1.85,   0, 535,   0,   0,   0,   0,   0,  -2, -40,  86, 2031,   0,   0,  -1,   0,   0,   0,   0,   0, 163, 160, 167, 166,  12,  12,  12,  17, 25, ANGLE_MODE, 0, IDLE, 1, 1
 82, 35653580,   1,   0,   0,   0,   0,   0,   1,   0,   0,   0,   0,   1,   1,  -1, 1000,   0,   0,   0,   0, 16.45, 1.85,   0, 535,   0,   0,  -1,   0,   0,  -1, -40,  86, 2031,   0,   0,  -2,   0,   0,   0,   0,   0, 162, 160, 167, 166,  12,  12,  12,  17, 25, ANGLE_MODE, 0, IDLE, 1, 1
 83, 35653832,   1,   0,   0,   0,   0,   0,   1,   0,   0,   0,   0,   1,   1,  -1, 1000,   0,   0,   0,   0, 16.45, 1.85,   0, 535,   0,   0,  -1,   0,   0,  -1, -40,  86, 2031,   0,   0,  -1,   0,   0,   0,   0,   0, 161, 161, 167, 166,  12,  12,  12,  17, 25, ANGLE_MODE, 0, IDLE, 1, 1
 84, 35654083,   1,   0,   0,   0,   0,   0,   1,   0,   0,   0,   0,   1,   1,  -1, 1000,   0,   0,   0,   0, 16.45, 1.85,   0, 535,   0,   0,  -1,  -1,   0,   0, -40,  81, 2034,   0,   0,  -1,   0,   0,   0,   0,   0, 161, 161, 167, 166,  12,  12,  12,  17, 25, ANGLE_MODE, 0, IDLE, 1, 1
 85, 35654335,   1,   0,   0,   0,   0,   0,   1,   0,   0,   0,   0,   1,   1,  -1, 1000,   0,   0,   0,   0, 16.45, 1.85,   0, 535,   0,   0,  -1,  -1,   0,   0, -40,  81, 2034,  -1,   0,   0,   0,   0,   0,   0,   0, 160, 162, 167, 166,  12,  12,  12,  17, 25, ANGLE_MODE, 0, IDLE, 1, 1
 86, 35654589,   1,   0,   0,   0,   0,   0,   1,  -1,   0,   0,   0,   1,   1,  -1, 1000,   0,   0,   0,   0, 16.45, 1.85,   0, 535,   0,   0,  -1,   0,   0,   0, -40,  81, 2034,   0,   0,   0,   0,   0,   0,   0,   0, 160, 162, 167, 167,  12,  12,  12,  17, 25, ANGLE_MODE, 0, IDLE, 1, 1
 87, 35654838,   1,   0,   1,   0,   0,   0,   1,  -1,   0,   0,   0,   1,   1,  -1, 1000,   0,   0,   0,   0, 16.45, 1.85,   0, 535,   0,   0,  -1,   0,   1,   0, -40,  81, 2034,   0,   1,   0,   0,   0,   0,   0,   0, 159, 163, 167, 167,  12,  12,  12,  17, 25, ANGLE_MODE, 0, IDLE, 1, 1
 88, 35655090,   1,   0,   1,   0,   0,   0,   1,  -1,   0,   0,   0,   1,   1,  -1, 1000,   0,   0,   0,   0, 16.45, 1.85,   0, 535,   0,   0,  -1,   0,   0,   0, -40,  81, 2034,   0,   1,   0,   0,   0,   0,   0,   0, 158, 164, 166, 168,  12,  12,  12,  17, 25, ANGLE_MODE, 0, IDLE, 1, 1
 89, 35655342,   1,   0,   1,   0,   0,   0,   1,  -1,   0,   0,   0,   1,   1,  -1, 1000,   0,   0,   0,   0, 16.45, 1.85,   0, 535,   0,   0,  -1,   0,   0,   0, -40,  81, 2034,   0,   0,   0,   0,   0,   0,   0,   0, 158, 164, 166, 168,  12,  12,  12,  17, 25, ANGLE_MODE, 0, IDLE, 1, 1
 90, 35655594,   1,   0,   1,   0,   0,   0,   1,  -2,   0,   0,   0,   1,   1,  -1, 1000,   0,   0,   0,   0, 16.45, 1.85,   0, 535,   0,   0,  -1,   0,   0,   0, -39,  85, 2037,   0,   0,   0,   0,   0,   0,   0,   0, 158, 164, 166, 168,  12,  12,  12,  17, 25, ANGLE_MODE, 0, IDLE, 1, 1
 91, 35655845,   1,   0,   1,   0,   0,   0,   1,  -1,   0,   0,   0,   1,   1,  -1, 1000,   0,   0,   0,   0, 16.45, 1.85,   0, 535,   0,   0,  -1,   0,   0,   0, -39,  85, 2037,   0,   0,   0,   0,   0,   0,   0,   0, 158, 164, 166, 168,  12,  12,  12,  17, 25, ANGLE_MODE, 0, IDLE, 1, 1
 92, 35656097,   1,   0,   1,   0,   0,   0,   1,  -1,   0,   0,   0,   1,   1,  -1, 1000,   0,   0,   0,   0, 16.45, 1.85,   0, 535,   0,   0,  -1,   0,  -1,   0, -39,  85, 2037,   0,  -1,   0,   0,   0,   0,   0,   0, 159, 163, 167, 167,  12,  12,  12,  17, 25, ANGLE_MODE, 0, IDLE, 1, 1
 93, 35656349,   1,   0,   1,   0,   0,   0,   1,  -1,   0,   0,   0,   1,   1,  -1, 1000,   0,   0,   0,   0, 16.45, 1.85,   0, 535,   0,   0,   0,   0,  -1,   0, -39,  85, 2037,   0,  -1,   0,   0,   0,   0,   0,   0, 160, 162, 167, 166,  12,  12,  12,  17, 25, ANGLE_MODE, 0, IDLE, 1, 1
 94, 35656600,   1,   1,   0,   0,   0,   0,   1,   0,   0,   0,   0,   1,   1,  -1, 1000,   0,   0,   0,   0, 16.45, 1.85,   0, 535,   0,   0,   0,   0,   0,   1, -36,  76, 2037,   0,   0,   0,   0,   0,   0,   0,   0, 161, 161, 168, 165,  12,  12,  12,  17, 25, ANGLE_MODE, 0, IDLE, 1, 1
 95, 35656852,   1,   1,   0,   0,   0,   0,   1,   0,   0,   0,   0,   1,   1,  -1, 1000,   0,   0,   0,   0, 16.46, 1.85,   0, 535,   0,   0,   0,   0,   0,   1, -36,  76, 2037,   0,   0,   1,   0,   0,   0,   0,   0, 162, 161, 168, 165,  12,  12,  12,  17, 25, ANGLE_MODE, 0, IDLE, 1, 1
 96, 35657114,   1,   0,   0,   0,   0,   0,   1,   0,   0,   0,   0,   1,   1,  -1, 1000,   0,   0,   0,   0, 16.46, 1.85,   0, 535,   0,   0,   0,   0,   0,   1, -36,  76, 2037,   0,   0,   1,   0,   0,   0,   0,   0, 163, 161, 168, 165,  12,  12,  12,  17, 25, ANGLE_MODE, 0, IDLE, 1, 1
 97, 35657355,   0,   0,   0,   0,   0,   0,   1,   0,   0,   0,   0,   1,   1,  -1, 1000,   0,   0,   0,   0, 16.46, 1.85,   0, 535,   0,   0,   0,   0,   0,   0, -36,  76, 2037,   0,   0,   1,   0,   0,   0,   0,   0, 163, 161, 167, 164,  12,  12,  12,  17, 25, ANGLE_MODE, 0, IDLE, 1, 1
 98, 35657607,   0,   0,   0,   0,   0,   0,   0,   0,   0,   0,   0,   1,   1,  -1, 1000,   0,   0,   0,   0, 16.46, 1.85,   0, 535,   0,   0,   0,   0,   0,   0, -39,  78, 2041,   0,   0,   0,   0,   0,   0,   0,   0, 164, 162, 166, 164,  12,  12,  12,  17, 25, ANGLE_MODE, 0, IDLE, 1, 1
 99, 35657858,   0,   0,   0,   0,   0,   0,   0,   0,   0,   0,   0,   1,   1,  -1, 1000,   0,   0,   0,   0, 16.46, 1.85,   0, 535,   0,   0,   0,   0,   0,  -1, -39,  78, 2041,   0,   0,   0,   0,   0,   0,   0,   0, 165, 163, 166, 163,  12,  12,  12,  17, 25, ANGLE_MODE, 0, IDLE, 1, 1
100, 35658110,   0,   1,   0,   0,   0,   0,   0,   0,   0,   0,   0,   1,   1,  -1, 1000,   0,   0,   0,   0, 16.46, 1.85,   0, 535,   0,   0,   0,   0,  -1,  -1, -39,  78, 2041,   0,  -1,  -1,   0,   0,   0,   0,   0, 166, 163, 165, 162,  12,  12,  12,  17, 25, ANGLE_MODE, 0, IDLE, 1, 1
101, 35658362,   0,   1,   0,   0,   0,   0,  -1,   1,   0,   0,   0,   1,   1,  -1, 1000,   0,   0,   0,   0, 16.46, 1.85,   0, 535,   0,   0,   0,   0,   0,  -1, -39,  78, 2041,   1,   0,  -1,   0,   0,   0,   0,   0, 167, 163, 165, 161,  12,  12,  12,  17, 25, ANGLE_MODE, 0, IDLE, 1, 1
102, 35658613,   0,   1,   0,   0,   0,   0,  -1,   1,   0,   0,   0,   1,   1,  -1, 1000,   0,   0,   0,   0, 16.46, 1.85,   0, 535,   0,   0,   0,   0,   0,  -1, -33,  71, 2043,   0,   0,  -1,   0,   0,   0,   0,   0, 168, 164, 164, 160,  12,  12,  12,  17, 25, ANGLE_MODE, 0, IDLE, 1, 1
103, 35658865,   0,   0,   0,   0,   0,   0,  -1,   1,   0,   0,   0,   1,   1,  -1, 1000,   0,   0,   0,   0, 16.46, 1.85,   0, 535,   0,   0,   0,   0,   0,  -1, -33,  71, 2043,   0,   0,  -1,   0,   0,   0,   0,   0, 168, 164, 163, 160,  12,  12,  12,  17, 25, ANGLE_MODE, 0, IDLE, 1, 1
104, 35659117,   0,   0,   0,   0,   0,   0,  -2,   0,   0,   0,   0,   1,   1,  -1, 1000,   0,   0,   0,   0, 16.46, 1.85,   0, 535,   0,   0,   0,   0,   0,  -1, -33,  71, 2043,   0,   0,  -1,   0,   0,   0,   0,   0, 168, 165, 163, 161,  12,  12,  12,  17, 25, ANGLE_MODE, 0, IDLE, 1, 1
105, 35659368,   0,   0,   0,   0,   0,   0,  -2,   0,   0,   0,   0,   1,   1,  -1, 1000,   0,   0,   0,   0, 16.46, 1.85,   0, 536,   0,   0,   0,   0,   1,  -1, -33,  71, 2043,   0,   1,  -1,   0,   0,   0,   0,   0, 167, 166, 162, 161,  12,  12,  12,  17, 25, ANGLE_MODE, 0, IDLE, 1, 1
106, 35659620,   0,   0,   0,   0,   0,   0,  -2,   0,   0,   0,   0,   1,   1,  -1, 1000,   0,   0,   0,   0, 16.46, 1.85,   0, 536,   0,   0,   0,   0,   0,  -1, -31,  74, 2041,   0,   0,  -1,   0,   0,   0,   0,   0, 167, 167, 161, 162,  12,  12,  12,  17, 25, ANGLE_MODE, 0, IDLE, 1, 1
107, 35659872,   0,   0,   0,   0,   0,   0,  -2,   0,   0,   0,   0,   1,   1,  -1, 1000,   0,   0,   0,   0, 16.46, 1.85,   0, 536,   0,   0,   0,   0,   0,  -1, -31,  74, 2041,   0,   0,  -1,   0,   0,   0,   0,   0, 166, 167, 161, 162,  12,  12,  12,  17, 25, ANGLE_MODE, 0, IDLE, 1, 1
108, 35660123,   0,   0,   0,   0,   0,   0,  -2,   0,   0,   0,   0,   1,   1,  -1, 1000,   0,   0,   0,   0, 16.46, 1.85,   0, 536,   0,   0,   0,   0,   0,  -2, -31,  74, 2041,   0,   0,  -1,   0,   0,   0,   0,   0, 166, 167, 161, 161,  12,  12,  12,  17, 25, ANGLE_MODE, 0, IDLE, 1, 1
109, 35660375,   0,   0,   0,   0,   0,   0,  -2,   0,   0,   0,   0,   1,   1,  -1, 1000,   0,   0,   0,   0, 16.46, 1.85,   0, 536,   0,   0,   0,   0,   0,  -2, -31,  74, 2041,   0,  -1,  -2,   0,   0,   0,   0,   0, 167, 167, 161, 161,  12,  12,  12,  17, 25, ANGLE_MODE, 0, IDLE, 1, 1
110, 35660627,   0,   0,   0,   0,   0,   0,  -2,   0,   0,   0,   0,   1,   1,  -1, 1000,   0,   0,   0,   0, 16.46, 1.85,   0, 536,   0,   0,  -1,   0,   0,  -2, -32,  75, 2039,   0,   0,  -2,   0,   0,   0,   0,   0, 167, 166, 162, 160,  12,  12,  12,  17, 25, ANGLE_MODE, 0, IDLE, 1, 1
111, 35660878,   0,   0,   0,   0,   0,   0,  -2,   0,   0,   0,   0,   1,   1,  -1, 1000,   0,   0,   0,   0, 16.46, 1.85,   0, 536,   0,   0,  -1,   0,   0,  -1, -32,  75, 2039,   0,   0,  -1,   0,   0,   0,   0,   0, 167, 166, 162, 160,  12,  12,  12,  17, 25, ANGLE_MODE, 0, IDLE, 1, 1
112, 35661130,   0,   0,   0,   0,   0,   0,  -2,   0,   0,   0,   0,   1,   1,  -1, 1000,   0,   0,   0,   0, 16.46, 1.85,   0, 536,   0,   0,  -1,  -1,   0,  -1, -32,  75, 2039,   0,   0,  -1,   0,   0,   0,   0,   0, 167, 166, 163, 160,  12,  12,  12,  17, 25, ANGLE_MODE, 0, IDLE, 1, 1
113, 35661382,   0,   0,   0,   0,   0,   0,  -1,   0,   0,   0,   0,   1,   1,  -1, 1000,   0,   0,   0,   0, 16.46, 2.00,   0, 536,   0,   0,  -1,  -1,   0,   0, -32,  75, 2039,  -1,   0,   0,   0,   0,   0,   0,   0, 166, 165, 164, 160,  12,  12,  12,  17, 25, ANGLE_MODE, 0, IDLE, 1, 1
114, 35661634,   0,   0,   0,   0,   0,   0,  -1,   0,   0,   0,   0,   1,   1,  -1, 1000,   0,   0,   0,   0, 16.46, 2.00,   0, 536,   0,   0,  -1,   0,   0,   0, -32,  75, 2039,  -1,   0,   0,   0,   0,   0,   0,   0, 165, 165, 165, 161,  12,  12,  12,  17, 25, ANGLE_MODE, 0, IDLE, 1, 1
115, 35661885,   0,   0,   0,   0,   0,   0,  -1,   0,   0,   0,   0,   1,   1,  -1, 1000,   0,   0,   0,   0, 16.46, 2.00,   0, 536,   0,   0,  -1,   0,   0,   1, -31,  77, 2037,   0,   0,   1,   0,   0,   0,   0,   0, 164, 164, 165, 162,  12,  12,  12,  17, 25, ANGLE_MODE, 0, IDLE, 1, 1
116, 35662137,   0,   0,   1,   0,   0,   0,   0,   0,   0,   0,   0,   1,   1,  -1, 1000,   0,   0,   0,   0, 16.46, 2.00,   0, 536,   0,   0,  -1,   0,   0,   1, -31,  77, 2037,   0,   0,   1,   0,   0,   0,   0,   0, 164, 164, 166, 162,  12,  12,  12,  17, 25, ANGLE_MODE, 0, IDLE, 1, 1
117, 35662389,   0,   0,   0,   0,   0,   0,   0,   0,   0,   0,   0,   1,   1,  -1, 1000,   0,   0,   0,   0, 16.46, 2.00,   0, 536,   0,   0,  -1,   0,  -1,   1, -31,  77, 2037,   0,  -1,   1,   0,   0,   0,   0,   0, 164, 163, 167, 162,  12,  12,  12,  17, 25, ANGLE_MODE, 0, IDLE, 1, 1
118, 35662640,   0,   1,   0,   0,   0,   0,   0,   0,   0,   0,   0,   1,   1,  -1, 1000,   0,   0,   0,   0, 16.46, 2.00,   0, 536,   0,   0,   0,   0,   0,   1, -31,  77, 2037,   0,  -1,   1,   0,   0,   0,   0,   0, 164, 162, 167, 162,  12,  12,  12,  17, 25, ANGLE_MODE, 0, IDLE, 1, 1
119, 35662892,   0,   1,   0,   0,   0,   0,   0,   1,   0,   0,   0,   1,   1,  -1, 1000,   0,   0,   0,   0, 16.46, 2.00,   0, 536,   0,   0,   0,   0,   0,   1, -32,  77, 2032,   0,   0,   1,   0,   0,   0,   0,   0, 164, 162, 168, 163,  12,  12,  12,  13, 25, ANGLE_MODE, 0, IDLE, 1, 1
120, 35663143,   0,   0,   0,   0,   0,   0,   0,   0,   0,   0,   0,   1,   1,  -1, 1000,   0,   0,   0,   0, 16.46, 2.00,   0, 536,   0,   0,   0,   0,   0,   1, -32,  77, 2032,   0,   0,   1,   0,   0,   0,   0,   0, 163, 162, 167, 163,  12,  12,  12,  13, 25, ANGLE_MODE, 0, IDLE, 1, 1
121, 35663395,   0,   0,   0,   0,   0,   0,   1,   0,   0,   0,   0,   1,   1,  -1, 1000,   0,   0,   0,   0, 16.46, 2.00,   0, 536,   0,   0,   0,  -1,   0,   1, -32,  77, 2032,   0,   0,   1,   0,   0,   0,   0,   0, 162, 162, 167, 165,  12,  12,  12,  13, 25, ANGLE_MODE, 0, IDLE, 1, 1
122, 35663647,   1,   0,   0,   0,   0,   0,   1,   0,   0,   0,   0,   1,   1,  -1, 1000,   0,   0,   0,   0, 16.46, 2.00,   0, 536,   0,   0,   0,   0,   0,   1, -32,  77, 2032,  -1,   0,   1,   0,   0,   0,   0,   0, 161, 162, 167, 166,  12,  12,  12,  13, 25, ANGLE_MODE, 0, IDLE, 1, 1
123, 35663898,   1,   0,   0,   0,   0,   0,   1,   0,   0,   0,   0,   1,   1,  -1, 1000,   0,   0,   0,   0, 16.46, 2.00,   0, 536,   0,   0,   0,   0,   0,   1, -32,  77, 2033,   0,   0,   1,   0,   0,   0,   0,   0, 160, 161, 167, 167,  12,  12,  12,  13, 25, ANGLE_MODE, 0, IDLE, 1, 1
124, 35664150,   1,   0,   0,   0,   0,   0,   1,  -1,   0,   0,   0,   1,   1,  -1, 1000,   0,   0,   0,   0, 16.46, 2.00,   0, 536,   0,   0,   0,   0,   0,   0, -32,  77, 2033,   0,   0,   0,   0,   0,   0,   0,   0, 160, 161, 167, 168,  12,  12,  12,  13, 25, ANGLE_MODE, 0, IDLE, 1, 1
125, 35664402,   1,   0,   0,   0,   0,   0,   2,  -1,   0,   0,   0,   1,   1,  -1, 1000,   0,   0,   0,   0, 16.46, 2.00,   0, 536,   0,   0,   0,   0,   0,  -1, -32,  77, 2033,   0,   0,  -1,   0,   0,   0,   0,   0, 160, 161, 167, 168,  12,  12,  12,  13, 25, ANGLE_MODE, 0, IDLE, 1, 1
126, 35664653,   1,   0,   0,   0,   0,   0,   1,   0,   0,   0,   0,   1,   1,  -1, 1000,   0,   0,   0,   0, 16.46, 2.00,   0, 536,   0,   0,   0,   0,   0,  -1, -32,  77, 2033,   0,   0,  -1,   0,   0,   0,   0,   0, 161, 161, 167, 167,  12,  12,  12,  13, 25, ANGLE_MODE, 0, IDLE, 1, 1
127, 35664907,   0,   0,   0,   0,   0,   0,   1,   0,   0,   0,   0,   1,   1,  -1, 1000,   0,   0,   0,   0, 16.46, 2.00,   0, 536,   0,   0,   0,   0,   0,  -1, -33,  79, 2033,   0,   0,  -1,   0,   0,   0,   0,   0, 161, 161, 167, 167,  12,  13,  12,  13, 25, ANGLE_MODE, 0, IDLE, 1, 1
128, 35665161,   0,   0,   0,   0,   0,   0,   1,   0,   0,   0,   0,   1,   1,  -1, 1000,   0,   0,   0,   0, 16.46, 2.00,   0, 536,   0,   0,   0,   0,   0,   0, -33,  79, 2033,   0,   0,  -1,   0,   0,   0,   0,   0, 162, 161, 166, 166,  13,  13,  13,  13, 25, ANGLE_MODE, 0, IDLE, 1, 1
129, 35665408,   0,   0,   0,   0,   0,   0,   1,   0,   0,   0,   0,   1,   1,  -1, 1000,   0,   0,   0,   0, 16.46, 2.00,   0, 536,   0,   0,   0,   0,   0,   0, -33,  79, 2033,   0,   0,   0,   0,   0,   0,   0,   0, 163, 162, 166, 166,  13,  13,  13,  13, 25, ANGLE_MODE, 0, IDLE, 1, 1
130, 35665660,   0,   0,   0,   0,   0,   0,   0,   0,   0,   0,   0,   1,   1,  -1, 1000,   0,   0,   0,   0, 16.46, 2.00,   0, 536,   0,   0,   0,   0,   0,   0, -33,  79, 2033,   0,   0,   0,   0,   0,   0,   0,   0, 163, 162, 165, 166,  13,  13,  13,  13, 25, ANGLE_MODE, 0, IDLE, 1, 1
131, 35665912,   0,   0,   0,   0,   0,   0,   0,   0,   0,   0,   0,   1,   1,  -1, 1000,   0,   0,   0,   0, 16.46, 2.00,   0, 536,   0,   0,   0,   0,   0,   0, -36,  80, 2035,   0,   0,   0,   0,   0,   0,   0,   0, 164, 163, 164, 165,  13,  13,  13,  13, 25, ANGLE_MODE, 0, IDLE, 1, 1
132, 35666163,   0,   0,   0,   0,   0,   0,   0,   0,   0,   0,   0,   1,   1,  -1, 1000,   0,   0,   0,   0, 16.46, 2.00,   0, 536,   0,   0,   0,   0,   0,   0, -36,  80, 2035,   0,   0,   0,   0,   0,   0,   0,   0, 165, 163, 164, 165,  13,  13,  13,  13, 25, ANGLE_MODE, 0, IDLE, 1, 1
133, 35666415,   0,   0,   0,   0,   0,   0,   0,   0,   0,   0,   0,   1,   1,  -1, 1000,   0,   0,   0,   0, 16.46, 2.00,   0, 536,   0,   0,   0,   1,   0,   0, -36,  80, 2035,   1,   0,   0,   0,   0,   0,   0,   0, 166, 163, 164, 164,  13,  13,  13,  13, 25, ANGLE_MODE, 0, IDLE, 1, 1
134, 35666669,   0,   0,   0,   0,   0,   0,  -1,   0,   0,   0,   0,   1,   1,  -1, 1000,   0,   0,   0,   0, 16.46, 2.00,   0, 536,   0,   0,   0,   1,   0,   1, -36,  80, 2035,   1,   0,   1,   0,   0,   0,   0,   0, 167, 163, 164, 163,  13,  13,  13,  13, 25, ANGLE_MODE, 0, IDLE, 1, 1
135, 35666918,   0,   1,  -1,   0,   0,   0,  -1,   0,   0,   0,   0,   1,   1,  -1, 1000,   0,   0,   0,   0, 16.46, 2.00,   0, 536,   0,   0,   1,   0,   0,   2, -38,  81, 2038,   0,   0,   2,   0,   0,   0,   0,   0, 168, 163, 163, 162,  13,  13,  13,  13, 25, ANGLE_MODE, 0, IDLE, 1, 1
136, 35667170,   0,   1,  -1,   0,   0,   0,  -1,   1,   0,   0,   0,   1,   1,  -1, 1000,   0,   0,   0,   0, 16.46, 2.00,   0, 536,   0,   0,   1,   0,   0,   2, -38,  81, 2038,   0,   0,   2,   0,   0,   0,   0,   0, 169, 163, 163, 161,  13,  12,  12,  13, 25, ANGLE_MODE, 0, IDLE, 1, 1
137, 35667422,   0,   1,  -1,   0,   0,   0,  -1,   1,   0,   0,   0,   1,   1,  -1, 1000,   0,   0,   0,   0, 16.46, 2.00,   0, 536,   0,   0,   1,   0,   0,   1, -38,  81, 2038,   0,   0,   2,   0,   0,   0,   0,   0, 170, 163, 163, 161,  13,  12,  12,  13, 25, ANGLE_MODE, 0, IDLE, 1, 1
138, 35667673,   0,   1,  -1,   0,   0,   0,  -1,   1,   0,   0,   0,   1,   1,  -1, 1000,   0,   0,   0,   0, 16.46, 2.00,   0, 536,   0,   0,   1,   0,   0,   1, -38,  81, 2038,   0,   0,   1,   0,   0,   0,   0,   0, 170, 163, 162, 161,  13,  12,  12,  13, 25, ANGLE_MODE, 0, IDLE, 1, 1
139, 35667925,   0,   1,  -1,   0,   0,   0,  -1,   1,   0,   0,   0,   1,   1,  -1, 1000,   0,   0,   0,   0, 16.46, 2.00,   0, 536,   0,   0,   1,   0,   0,   0, -38,  81, 2038,   0,   0,   0,   0,   0,   0,   0,   0, 170, 163, 162, 161,  13,  12,  12,  13, 25, ANGLE_MODE, 0, IDLE, 1, 1
140, 35668177,   0,   0,  -1,   0,   0,   0,  -1,   1,   0,   0,   0,   1,   1,  -1, 1000,   0,   0,   0,   0, 16.46, 2.00,   0, 536,   0,   0,   1,   0,   0,   0, -40,  81, 2037,   0,   0,   0,   0,   0,   0,   0,   0, 169, 163, 162, 162,  13,  12,  12,  13, 25, ANGLE_MODE, 0, IDLE, 1, 1
141, 35668428,   0,   0,  -1,   0,   0,   0,  -1,   0,   0,   0,   0,   1,   1,  -1, 1000,   0,   0,   0,   0, 16.46, 2.00,   0, 536,   0,   0,   1,   0,   0,   0, -40,  81, 2037,   0,   0,   0,   0,   0,   0,   0,   0, 169, 163, 162, 163,  13,  12,  12,  13, 25, ANGLE_MODE, 0, IDLE, 1, 1
142, 35668682,   0,   0,  -1,   0,   0,   0,  -1,   0,   0,   0,   0,   1,   1,  -1, 1000,   0,   0,   0,   0, 16.46, 2.00,   0, 536,   0,   0,   0,   0,   0,   0, -40,  81, 2037,   0,   0,   0,   0,   0,   0,   0,   0, 168, 163, 162, 163,  13,  12,  12,  13, 25, ANGLE_MODE, 0, IDLE, 1, 1
143, 35668932,   0,   0,  -1,   0,   0,   0,  -1,   0,   0,   0,   0,   1,   1,  -1, 1000,   0,   0,   0,   0, 16.46, 2.00,   0, 536,   0,   0,   0,   0,   0,   0, -40,  81, 2037,   0,   0,   0,   0,   0,   0,   0,   0, 168, 163, 162, 164,  13,  12,  12,  13, 25, ANGLE_MODE, 0, IDLE, 1, 1
144, 35669183,   0,   0,  -1,   0,   0,   0,  -1,   0,   0,   0,   0,   1,   1,  -1, 1000,   0,   0,   0,   0, 16.46, 2.00,   0, 536,   0,   0,   0,   0,   0,   0, -39,  84, 2034,   0,   0,   0,   0,   0,   0,   0,   0, 167, 163, 162, 164,  13,  12,  12,  13, 25, ANGLE_MODE, 0, IDLE, 1, 1
145, 35669435,   0,   0,  -1,   0,   0,   0,  -1,   0,   0,   0,   0,   1,   1,  -1, 1000,   0,   0,   0,   0, 16.46, 2.00,   0, 536,   0,   0,   0,   0,   0,  -1, -39,  84, 2034,   0,   0,  -1,   0,   0,   0,   0,   0, 167, 163, 162, 164,  13,  12,  12,  13, 25, ANGLE_MODE, 0, IDLE, 1, 1
146, 35669687,   0,   0,  -1,   0,   0,   0,  -1,   0,   0,   0,   0,   1,   1,  -1, 1000,   0,   0,   0,   0, 16.46, 2.00,   0, 536,   0,   0,   0,   0,   0,  -1, -39,  84, 2034,   0,   0,  -1,   0,   0,   0,   0,   0, 167, 164, 161, 164,  13,  12,  12,  13, 25, ANGLE_MODE, 0, IDLE, 1, 1
147, 35669938,   0,   0,  -1,   0,   0,   0,  -1,   0,   0,   0,   0,   1,   1,  -1, 1000,   0,   0,   0,   0, 16.46, 2.00,   0, 536,   0,   0,   0,   0,   0,  -1, -39,  84, 2034,   0,   0,  -1,   0,   0,   0,   0,   0, 166, 164, 162, 164,  13,  12,  12,  13, 25, ANGLE_MODE, 0, IDLE, 1, 1
148, 35670190,   0,   0,  -1,   0,   0,   0,  -1,   0,   0,   0,   0,   1,   1,  -1, 1000,   0,   0,   0,   0, 16.46, 2.00,   0, 536,   0,   0,   0,   0,   0,  -1, -41,  85, 2034,   0,   0,  -1,   0,   0,   0,   0,   0, 166, 163, 162, 164,  12,  12,  12,  13, 25, ANGLE_MODE, 0, IDLE, 1, 1
149, 35670442,   0,   0,  -1,   0,   0,   0,   0,   0,   0,   0,   0,   1,   1,  -1, 1000,   0,   0,   0,   0, 16.46, 2.00,   0, 536,   0,   0,   0,   0,   0,  -1, -41,  85, 2034,   0,   0,  -1,   0,   0,   0,   0,   0, 165, 163, 163, 165,  12,  12,  12,  13, 25, ANGLE_MODE, 0, IDLE, 1, 1
150, 35670693,   0,   0,   0,   0,   0,   0,   0,   0,   0,   0,   0,   1,   1,  -1, 1000,   0,   0,   0,   0, 16.46, 2.00,   0, 536,   0,   0,  -1,   0,   0,  -1, -41,  85, 2034,   0,   0,  -1,   0,   0,   0,   0,   0, 164, 163, 164, 165,  12,  12,  12,  12, 25, ANGLE_MODE, 0, IDLE, 1, 1
151, 35670948,   0,   0,   0,   0,   0,   0,   0,   0,   0,   0,   0,   1,   1,  -1, 1000,   0,   0,   0,   0, 16.46, 2.00,   0, 536,   0,   0,  -1,  -1,   0,  -1, -41,  85, 2034,   0,   0,  -1,   0,   0,   0,   0,   0, 163, 163, 164, 166,  12,  12,  12,  12, 25, ANGLE_MODE, 0, IDLE, 1, 1
152, 35671197,   0,   0,   0,   0,   0,   0,   1,   0,   0,   0,   0,   1,   1,  -1, 1000,   0,   0,   0,   0, 16.46, 2.00,   0, 536,   0,   0,  -1,   0,  -1,  -1, -40,  85, 2036,  -1,   0,  -1,   0,   0,   0,   0,   0, 162, 162, 165, 166,  12,  12,  12,  12, 25, ANGLE_MODE, 0, IDLE, 1, 1
153, 35671448,   0,   0,   0,   0,   0,   0,   1,   0,   0,   0,   0,   1,   1,  -1, 1000,   0,   0,   0,   0, 16.46, 2.00,   0, 536,   0,   0,  -1,   0,  -1,  -1, -40,  85, 2036,   0,  -1,  -1,   0,   0,   0,   0,   0, 162, 162, 166, 166,  12,  13,  12,  12, 25, ANGLE_MODE, 0, IDLE, 1, 1
154, 35671700,   0,   0,   0,   0,   0,   0,   1,   0,   0,   0,   0,   1,   1,  -1, 1000,   0,   0,   0,   0, 16.46, 2.00,   0, 536,   0,   0,  -1,   0,   0,   0, -40,  85, 2036,   0,   0,  -1,   0,   0,   0,   0,   0, 162, 162, 167, 165,  12,  13,  12,  12, 25, ANGLE_MODE, 0, IDLE, 1, 1
155, 35671952,   0,   1,   0,   0,   0,   0,   1,   0,   0,   0,   0,   1,   1,  -1, 1000,   0,   0,   0,   0, 16.47, 2.00,   0, 536,   0,   0,  -1,   0,  -1,   0, -40,  85, 2036,   0,  -1,   0,   0,   0,   0,   0,   0, 163, 162, 167, 164,  12,  13,  12,  12, 25, ANGLE_MODE, 0, IDLE, 1, 1
156, 35672203,   0,   1,   0,   0,   0,   0,   1,   0,   0,   0,   0,   1,   1,  -1, 1000,   0,   0,   0,   0, 16.47, 2.00,   0, 536,   0,   0,  -1,   0,  -1,   1, -40,  85, 2036,   0,  -1,   1,   0,   0,   0,   0,   0, 163, 162, 168, 163,  12,  13,  12,  12, 25, ANGLE_MODE, 0, IDLE, 1, 1
157, 35672455,   0,   1,   0,   0,   0,   0,   1,   1,   0,   0,   0,   1,   1,  -1, 1000,   0,   0,   0,   0, 16.47, 2.00,   0, 536,   0,   0,  -1,  -1,  -1,   1, -41,  89, 2038,  -1,  -1,   1,   0,   0,   0,   0,   0, 164, 161, 168, 163,  12,  13,  12,  12, 25, ANGLE_MODE, 0, IDLE, 1, 1
158, 35672709,   1,   1,   0,   0,   0,   0,   1,   1,   0,   0,   0,   1,   1,  -1, 1000,   0,   0,   0,   0, 16.47, 2.00,   0, 536,   0,   0,   0,  -1,   0,   0, -41,  89, 2038,  -1,   0,   1,   0,   0,   0,   0,   0, 164, 160, 170, 163,  12,  13,  12,  12, 25, ANGLE_MODE, 0, IDLE, 1, 1
159, 35672958,   1,   1,   0,   0,   0,   0,   1,   1,   0,   0,   0,   1,   1,  -1, 1000,   0,   0,   0,   0, 16.47, 2.00,   0, 536,   0,   0,   0,   0,   0,   0, -41,  89, 2038,  -1,   0,   0,   0,   0,   0,   0,   0, 164, 158, 171, 163,  12,  13,  12,  12, 25, ANGLE_MODE, 0, IDLE, 1, 1
160, 35673210,   1,   1,   0,   0,   0,   0,   1,   1,   0,   0,   0,   1,   1,  -1, 1000,   0,   0,   0,   0, 16.47, 2.00,   0, 536,   0,   0,   0,   0,   0,   0, -41,  89, 2038,   0,   0,   0,   0,   0,   0,   0,   0, 164, 158, 171, 164,  12,  13,  12,  12, 25, ANGLE_MODE, 0, IDLE, 1, 1
161, 35673462,   1,   1,   0,   0,   0,   0,   2,   1,   0,   0,   0,   1,   1,  -1, 1000,   0,   0,   0,   0, 16.47, 2.00,   0, 536,   0,   0,   0,   1,   0,   0, -41,  87, 2037,   0,   0,   0,   0,   0,   0,   0,   0, 163, 158, 171, 164,  12,  14,  12,  12, 25, ANGLE_MODE, 0, IDLE, 1, 1
162, 35673713,   0,   1,   0,   0,   0,   0,   1,   1,   0,   0,   0,   1,   1,  -1, 1000,   0,   0,   0,   0, 16.47, 2.00,   0, 536,   0,   0,   0,   1,   0,   1, -41,  87, 2037,   1,   0,   0,   0,   0,   0,   0,   0, 163, 159, 170, 164,  12,  14,  12,  12, 25, ANGLE_MODE, 0, IDLE, 1, 1
163, 35673965,   0,   0,   0,   0,   0,   0,   1,   1,   0,   0,   0,   1,   1,  -1, 1000,   0,   0,   0,   0, 16.47, 2.00,   0, 536,   0,   0,   0,   1,   0,   1, -41,  87, 2037,   1,   0,   1,   0,   0,   0,   0,   0, 164, 160, 168, 164,  12,  14,  12,  12, 25, ANGLE_MODE, 0, IDLE, 1, 1
164, 35674217,   0,   0,   0,   0,   0,   0,   1,   0,   0,   0,   0,   1,   1,  -1, 1000,   0,   0,   0,   0, 16.47, 2.00,   0, 536,   0,   0,   0,   1,   1,   1, -41,  87, 2037,   1,   1,   1,   0,   0,   0,   0,   0, 163, 162, 166, 165,  13,  14,  12,  12, 25, ANGLE_MODE, 0, IDLE, 1, 1
165, 35674471,   0,   0,   0,   0,   0,   0,   0,   0,   0,   0,   0,   1,   1,  -1, 1000,   0,   0,   0,   0, 16.47, 2.00,   0, 536,   0,   0,   1,   0,   1,   0, -32,  83, 2034,   0,   1,   1,   0,   0,   0,   0,   0, 163, 163, 164, 166,  13,  14,  12,  12, 25, ANGLE_MODE, 0, IDLE, 1, 1
166, 35674720,   0,   0,   0,   0,   0,   0,   0,  -1,   0,   0,   0,   1,   1,  -1, 1000,   0,   0,   0,   0, 16.47, 2.00,   0, 536,   0,   0,   1,   0,   0,   0, -32,  83, 2034,   0,   0,   0,   0,   0,   0,   0,   0, 162, 165, 162, 167,  13,  14,  12,  12, 25, ANGLE_MODE, 0, IDLE, 1, 1
167, 35674974,   0,   0,  -1,   0,   0,   0,   0,  -1,   0,   0,   0,   1,   1,  -1, 1000,   0,   0,   0,   0, 16.47, 2.00,   0, 536,   0,   0,   1,   0,   0,   0, -32,  83, 2034,   0,   0,   0,   0,   0,   0,   0,   0, 162, 165, 161, 168,  13,  14,  12,  12, 25, ANGLE_MODE, 0, IDLE, 1, 1
168, 35675223,   0,   0,  -1,   0,   0,   0,   0,  -2,   0,   0,   0,   1,   1,  -1, 1000,   0,   0,   0,   0, 16.47, 2.00,   0, 536,   0,   0,   1,   0,   0,   1, -32,  83, 2034,   0,   0,   0,   0,   0,   0,   0,   0, 162, 165, 161, 168,  13,  14,  12,  12, 25, ANGLE_MODE, 0, IDLE, 1, 1
169, 35675475,   0,   0,  -1,   0,   0,   0,   0,  -2,   0,   0,   0,   1,   1,  -1, 1000,   0,   0,   0,   0, 16.47, 2.00,   0, 536,   0,   0,   1,   0,   0,   1, -37,  84, 2030,   0,   0,   1,   0,   0,   0,   0,   0, 162, 165, 161, 168,  13,  14,  12,  12, 25, ANGLE_MODE, 0, IDLE, 1, 1
170, 35675727,   0,   0,  -1,   0,   0,   0,   0,  -2,   0,   0,   0,   1,   1,  -1, 1000,   0,   0,   0,   0, 16.47, 2.00,   0, 536,   0,   0,   1,   1,   0,   2, -37,  84, 2030,   1,   0,   2,   0,   0,   0,   0,   0, 163, 165, 160, 168,  13,  14,  12,  12, 25, ANGLE_MODE, 0, IDLE, 1, 1
171, 35675978,   0,   0,  -1,   0,   0,   0,   0,  -2,   0,   0,   0,   1,   1,  -1, 1000,   0,   0,   0,   0, 16.47, 2.00,   0, 536,   0,   0,   1,   0,   0,   2, -37,  84, 2030,   0,   0,   2,   0,   0,   0,   0,   0, 164, 166, 160, 167,  13,  14,  12,  12, 25, ANGLE_MODE, 0, IDLE, 1, 1
172, 35676230,   0,   0,  -1,   0,   0,   0,  -1,  -1,   0,   0,   0,   1,   1,  -1, 1000,   0,   0,   0,   0, 16.47, 2.00,   0, 536,   0,   0,   1,   0,   0,   1, -37,  84, 2030,   0,   0,   2,   0,   0,   0,   0,   0, 165, 165, 160, 166,  14,  14,  12,  12, 25, ANGLE_MODE, 0, IDLE, 1, 1
173, 35676484,   0,   0,  -1,   0,   0,   0,  -1,  -1,   0,   0,   0,   1,   1,  -1, 1000,   0,   0,   0,   0, 16.47, 2.00,   0, 536,   0,   0,   1,   0,   0,   0, -41,  93, 2027,   0,   0,   0,   0,   0,   0,   0,   0, 166, 165, 160, 166,  14,  14,  13,  12, 25, ANGLE_MODE, 0, IDLE, 1, 1
174, 35676733,   0,   0,  -1,   0,   0,   0,  -1,  -1,   0,   0,   0,   1,   1,  -1, 1000,   0,   0,   0,   0, 16.47, 2.00,   0, 536,   0,   0,   0,   0,   0,  -1, -41,  93, 2027,   0,   0,  -1,   0,   0,   0,   0,   0, 166, 165, 160, 165,  14,  14,  13,  12, 25, ANGLE_MODE, 0, IDLE, 1, 1
175, 35676985,   0,   0,  -1,   0,   0,   0,  -1,  -1,   0,   0,   0,   1,   1,  -1, 1000,   0,   0,   0,   0, 16.49, 2.00,   0, 536,   0,   0,   0,   0,  -1,  -1, -41,  93, 2027,   0,  -1,  -1,   0,   0,   0,   0,   0, 166, 164, 161, 164,  14,  14,  13,  12, 25, ANGLE_MODE, 0, IDLE, 1, 1
176, 35677237,   0,   1,  -1,   0,   0,   0,  -1,   0,   0,   0,   0,   1,   1,  -1, 1000,   0,   0,   0,   0, 16.49, 2.00,   0, 536,   0,   0,   0,   0,  -1,  -1, -41,  93, 2027,   0,  -1,  -1,   0,   0,   0,   0,   0, 167, 163, 163, 164,  14,  16,  13,  12, 25, ANGLE_MODE, 0, IDLE, 1, 1
177, 35677488,   0,   1,  -1,   0,   0,   0,  -1,   1,   0,   0,   0,   1,   1,  -1, 1000,   0,   0,   0,   0, 16.49, 2.00,   0, 536,   0,   0,   0,  -1,  -2,   0, -43,  86, 2033,  -1,  -2,  -1,   0,   0,   0,   0,   0, 167, 161, 165, 162,  14,  16,  13,  12, 25, ANGLE_MODE, 0, IDLE, 1, 1
178, 35677740,   0,   1,  -1,   0,   0,   0,   0,   1,   0,   0,   0,   1,   1,  -1, 1000,   0,   0,   0,   0, 16.49, 2.00,   0, 536,   0,  -1,   0,  -1,  -1,   0, -43,  86, 2033,  -1,  -2,   0,   0,   0,   0,   0,   0, 168, 159, 167, 161,  14,  16,  13,  13, 25, ANGLE_MODE, 0, IDLE, 1, 1
179, 35677992,   0,   1,   0,   0,   0,   0,   0,   2,   0,   0,   0,   1,   1,  -1, 1000,   0,   0,   0,   0, 16.49, 2.00,   0, 536,   0,  -1,   0,   0,   0,  -1, -43,  86, 2033,   0,  -1,   0,   0,   0,   0,   0,   0, 169, 157, 170, 161,  16,  16,  13,  13, 25, ANGLE_MODE, 0, IDLE, 1, 1
180, 35678243,   1,   1,   0,   0,   0,   0,   0,   3,   0,   0,   0,   1,   1,  -1, 1000,   0,   0,   0,   0, 16.49, 2.00,   0, 536,   0,  -1,   0,   0,   0,  -1, -43,  86, 2033,   0,   0,  -1,   0,   0,   0,   0,   0, 169, 156, 171, 160,  16,  16,  13,  13, 25, ANGLE_MODE, 0, IDLE, 1, 1
181, 35678495,   0,   1,   0,   0,   0,   0,   1,   3,   0,   0,   0,   1,   1,  -1, 1000,   0,   0,   0,   0, 16.49, 2.00,   0, 536,   0,   0,   0,   0,   0,  -1, -38,  90, 2034,   0,   0,  -1,   0,   0,   0,   0,   0, 168, 156, 171, 161,  16,  16,  12,  13, 25, ANGLE_MODE, 0, IDLE, 1, 1
182, 35678747,   0,   1,   0,   0,   0,   0,   1,   2,   0,   0,   0,   1,   1,  -1, 1000,   0,   0,   0,   0, 16.49, 2.00,   0, 536,   0,   0,   0,   0,   0,   0, -38,  90, 2034,   0,   0,  -1,   0,   0,   0,   0,   0, 168, 156, 170, 161,  16,  16,  12,  13, 25, ANGLE_MODE, 0, IDLE, 1, 1
183, 35679001,   0,   1,   0,   0,   0,   0,   1,   2,   0,   0,   0,   1,   1,  -1, 1000,   0,   0,   0,   0, 16.49, 2.00,   0, 536,   0,   0,   0,   0,   0,   0, -38,  90, 2034,   0,   0,   0,   0,   0,   0,   0,   0, 167, 157, 170, 162,  16,  17,  12,  13, 25, ANGLE_MODE, 0, IDLE, 1, 1
184, 35679250,   0,   1,   0,   0,   0,   0,   1,   2,   0,   0,   0,   1,   1,  -1, 1000,   0,   0,   0,   0, 16.49, 2.00,   0, 536,   0,   0,   0,   1,   0,   0, -38,  90, 2034,   1,   0,   0,   0,   0,   0,   0,   0, 167, 158, 168, 163,  16,  17,  12,  13, 25, ANGLE_MODE, 0, IDLE, 1, 1
185, 35679502,   0,   0,   0,   0,   0,   0,   0,   1,   0,   0,   0,   1,   1,  -1, 1000,   0,   0,   0,   0, 16.49, 2.00,   0, 536,   0,   0,   0,   0,   0,   0, -41,  84, 2034,   1,   0,   0,   0,   0,   0,   0,   0, 166, 160, 167, 163,  16,  17,  12,  13, 25, ANGLE_MODE, 0, IDLE, 1, 1
186, 35679753,   0,   0,   0,   0,   0,   0,   0,   1,   0,   0,   0,   1,   1,  -1, 1000,   0,   0,   0,   0, 16.49, 2.00,   0, 536,   0,   0,   0,  -1,   0,   0, -41,  84, 2034,   0,   0,   0,   0,   0,   0,   0,   0, 166, 161, 165, 164,  18,  17,  12,  15, 25, ANGLE_MODE, 0, IDLE, 1, 1
187, 35680005,   0,   0,   0,   0,   0,   0,   0,   0,   0,   0,   0,   1,   1,  -1, 1000,   0,   0,   0,   0, 16.49, 2.00,   0, 536,   0,   0,   0,   0,  -1,   0, -41,  84, 2034,  -1,   0,   0,   0,   0,   0,   0,   0, 165, 162, 165, 164,  18,  17,  12,  15, 25, ANGLE_MODE, 0, IDLE, 1, 1
188, 35680256,   0,   0,   0,   0,   0,   0,   0,   0,   0,   0,   0,   1,   1,  -1, 1000,   0,   0,   0,   0, 16.49, 2.00,   0, 536,   0,   0,   0,   1,   0,   0, -41,  84, 2034,   0,  -1,   0,   0,   0,   0,   0,   0, 165, 162, 165, 165,  18,  17,  12,  15, 25, ANGLE_MODE, 0, IDLE, 1, 1
189, 35680508,   0,   1,   0,   0,   0,   0,   0,   0,   0,   0,   0,   1,   1,  -1, 1000,   0,   0,   0,   0, 16.49, 2.00,   0, 536,   0,   0,   0,   1,   1,   0, -42,  85, 2035,   1,   0,   0,   0,   0,   0,   0,   0, 165, 162, 165, 164,  18,  21,  12,  15, 25, ANGLE_MODE, 0, IDLE, 1, 1
190, 35680761,   0,   0,   0,   0,   0,   0,   0,   0,   0,   0,   0,   1,   1,  -1, 1000,   0,   0,   0,   0, 16.49, 2.00,   0, 536,   0,   0,   0,   1,   1,   0, -42,  85, 2035,   1,   1,   0,   0,   0,   0,   0,   0, 165, 163, 164, 164,  18,  21,  12,  15, 25, ANGLE_MODE, 0, IDLE, 1, 1
191, 35681011,   0,   0,   0,   0,   0,   0,   0,   0,   0,   0,   0,   1,   1,  -1, 1000,   0,   0,   0,   0, 16.49, 2.00,   0, 536,   0,   0,   0,   0,   1,   0, -42,  85, 2035,   0,   1,   0,   0,   0,   0,   0,   0, 165, 164, 163, 164,  19,  21,  12,  15, 25, ANGLE_MODE, 0, IDLE, 1, 1
192, 35681263,   0,   0,   0,   0,   0,   0,  -1,   0,   0,   0,   0,   1,   1,  -1, 1000,   0,   0,   0,   0, 16.49, 2.00,   0, 536,   0,   0,   0,  -1,   1,   1, -42,  85, 2035,   0,   1,   1,   0,   0,   0,   0,   0, 165, 164, 163, 164,  19,  21,  12,  15, 25, ANGLE_MODE, 0, IDLE, 1, 1
193, 35681515,   0,   0,   0,   0,   0,   0,   0,   0,   0,   0,   0,   1,   1,  -1, 1000,   0,   0,   0,   0, 16.49, 1.88,   0, 536,   0,   0,   0,   0,   1,   1, -35,  86, 2040,  -1,   1,   1,   0,   0,   0,   0,   0, 165, 164, 163, 164,  19,  21,  12,  17, 25, ANGLE_MODE, 0, IDLE, 1, 1
194, 35681766,   0,   0,   0,   0,   0,   0,   0,  -1,   0,   0,   0,   1,   1,  -1, 1000,   0,   0,   0,   0, 16.49, 1.88,   0, 536,   0,   0,   0,   0,   0,   0, -35,  86, 2040,   0,   0,   1,   0,   0,   0,   0,   0, 164, 164, 163, 165,  19,  21,  12,  17, 25, ANGLE_MODE, 0, IDLE, 1, 1
195, 35682018,   0,   0,   0,   0,   0,   0,   0,  -1,   0,   0,   0,   1,   1,  -1, 1000,   0,   0,   0,   0, 16.49, 1.88,   0, 536,   0,   0,   0,   0,   0,  -1, -35,  86, 2040,   0,   0,  -1,   0,   0,   0,   0,   0, 163, 165, 162, 166,  19,  21,  12,  17, 25, ANGLE_MODE, 0, IDLE, 1, 1
196, 35682270,   0,   0,   0,   0,   0,   0,   0,  -1,   0,   0,   0,   1,   1,  -1, 1000,   0,   0,   0,   0, 16.49, 1.88,   0, 536,   0,   0,   0,   1,  -1,  -1, -35,  86, 2040,   1,   0,  -2,   0,   0,   0,   0,   0, 163, 166, 161, 166,  19,  21,  12,  17, 25, ANGLE_MODE, 0, IDLE, 1, 1
197, 35682521,   0,   0,   0,   0,   0,   0,  -1,  -1,   0,   0,   0,   1,   1,  -1, 1000,   0,   0,   0,   0, 16.49, 1.88,   0, 536,   0,   0,   0,   1,   0,   0, -35,  92, 2042,   1,  -1,  -1,   0,   0,   0,   0,   0, 163, 166, 161, 166,  22,  21,  14,  17, 25, ANGLE_MODE, 0, IDLE, 1, 1
198, 35682775,   0,   0,   0,   0,   0,   0,  -1,  -1,   0,   0,   0,   1,   1,  -1, 1000,   0,   0,   0,   0, 16.49, 1.88,   0, 536,   0,   0,   0,   0,   0,   2, -35,  92, 2042,   0,   0,   1,   0,   0,   0,   0,   0, 164, 167, 161, 165,  22,  21,  14,  17, 25, ANGLE_MODE, 0, IDLE, 1, 1
199, 35683025,   0,   0,   0,   0,   0,   0,  -1,  -1,   0,   0,   0,   1,   1,  -1, 1000,   0,   0,   0,   0, 16.49, 1.88,   0, 536,   0,   0,   0,   0,   0,   3, -35,  92, 2042,   0,   0,   3,   0,   0,   0,   0,   0, 164, 167, 160, 165,  22,  24,  14,  19, 25, ANGLE_MODE, 0, IDLE, 1, 1
200, 35683276,   0,   0,   0,   0,   0,   0,  -1,  -1,   0,   0,   0,   1,   1,  -1, 1000,   0,   0,   0,   0, 16.49, 1.88,   0, 536,   0,   0,   0,  -1,   0,   2, -35,  92, 2042,  -1,   0,   2,   0,   0,   0,   0,   0, 163, 167, 160, 166,  22,  24,  14,  19, 25, ANGLE_MODE, 0, IDLE, 1, 1
201, 35683528,   0,   0,   0,   0,   0,   0,   0,  -1,   0,   0,   0,   1,   1,  -1, 1000,   0,   0,   0,   0, 16.49, 1.88,   0, 536,   0,   0,   1,   0,  -1,   1, -29,  91, 2057,  -1,   0,   1,   0,   0,   0,   0,   0, 163, 165, 161, 166,  24,  24,  14,  19, 25, ANGLE_MODE, 0, IDLE, 1, 1
202, 35683780,   0,   0,  -1,   0,   0,   0,   0,  -1,   0,   0,   0,   1,   1,  -1, 1000,   0,   0,   0,   0, 16.49, 1.88,   0, 536,   0,   0,   1,   0,  -1,   0, -29,  91, 2057,   0,  -1,   0,   0,   0,   0,   0,   0, 164, 163, 163, 166,  24,  24,  14,  19, 25, ANGLE_MODE, 0, IDLE, 1, 1
203, 35684031,   0,   1,  -1,   0,   0,   0,   0,   0,   0,   0,   0,   1,   1,  -1, 1000,   0,   0,   0,   0, 16.49, 1.88,   0, 536,   0,   0,   1,   0,  -1,  -1, -29,  91, 2057,   0,  -1,  -1,   0,   0,   0,   0,   0, 165, 162, 164, 165,  24,  26,  14,  19, 25, ANGLE_MODE, 0, IDLE, 1, 1
